{
  "Locations": [
    {
      "name": "Solider Field",
      "position":{"lat":41.8623132, "lng":-87.6188824},
      "address": "1410 Museum Campus Dr",
      "city": "Chicago",
      "state": "IL",
      "zipcode":"60605"
    },
    {
      "name": "Art Institute",
      "position":{"lat":41.8795845, "lng":-87.6259073},
      "address": "111 S Michigan Ave",
      "city": "Chicago",
      "state": "IL",
      "zipcode": "60603"
    },
    {
      "name": "Museum of Science and Industry",
      "position":{"lat":41.7905726,"lng":-87.6188824},
      "address": "5700 S Lake Shore Dr",
      "city": "Chicago",
      "state": "IL",
      "zipcode": "60637"
    },
    {
      "name": "Wrigley Field",
      "position":{"lat":41.9484384, "lng":-87.6575267},
      "address": "1060 W Addison St",
      "city": "Chicago",
      "state": "IL",
      "zipcode": "60613"
    },
    {
      "name": "Kohl Childrens Museum",
      "position":{"lat":42.09376, "lng":-87.828103},
      "address": "2100 Patriot Blvd",
      "city": "Glenview",
      "state": "IL",
      "zipcode": "60613"
    }
  ]
}
